[
  {
    "address": "20 Cộng Hòa, Phường 12, Quận Tân Bình, Hồ Chí Minh, Viet Nam",
    "phoneNumber": "677645786",
    "website": "",
    "rate": 0,
    "isMainStore": false,
    "storeId": "67de51aa-fbb9-4df7-9afc-80784cbf2c04",
    "storeBranchId": "def30bdd-9e5b-4060-5e1b-08dba2d80bd1",
    "storeName": "Hạnh Test Bank Account   Dat Tân Bình Đã đóng cửa vào t2 4 6Dat Tân Bình Đã đóng cửa vào t2 4 6Dat T",
    "latitude": 10.8030648,
    "longitude": 106.6526912,
    "distance": 0,
    "isFirstCreatedBranch": false
  },
  {
    "address": "1 Đường Cộng Hòa, Phường 4, Quận Tân Bình, Hồ Chí Minh, Viet Nam",
    "phoneNumber": "232564655",
    "website": "",
    "rate": 0,
    "isMainStore": false,
    "storeId": "67de51aa-fbb9-4df7-9afc-80784cbf2c04",
    "storeBranchId": "b44c5c2e-6e75-41de-b264-08dbbd7632d3",
    "storeName": "Dat Tan Binh - In cả thế giới  Dat Tân Bình Đã đóng cửa vào t2 4 6Dat Tân Bình Đã đóng cửa vào t2 4 ",
    "latitude": 10.8004315,
    "longitude": 106.66058,
    "distance": 0,
    "isFirstCreatedBranch": false
  },
  {
    "address": "90 Bạch Đằng, Phường 2, Quận Tân Bình, Hồ Chí Minh, Viet Nam",
    "phoneNumber": "162345644557",
    "website": "",
    "rate": 0,
    "isMainStore": false,
    "storeId": "67de51aa-fbb9-4df7-9afc-80784cbf2c04",
    "storeBranchId": "026b07a3-e531-49f2-4b1f-08dbbd796292",
    "storeName": "Dat Tân Bình Đã đóng cửa vào t2 4 6   Dat Tân Bình Đã đóng cửa vào t2 4 6",
    "latitude": 10.8149249,
    "longitude": 106.6737421,
    "distance": 0,
    "isFirstCreatedBranch": false
  },
  {
    "address": "119 Đường Điện Biên Phủ, Phường Đa Kao,  Quận 1, Hồ Chí Minh, Viet Nam",
    "phoneNumber": "972817741",
    "website": "",
    "rate": 0,
    "isMainStore": false,
    "storeId": "67de51aa-fbb9-4df7-9afc-80784cbf2c04",
    "storeBranchId": "e2b4ce2b-7679-4f8e-eb62-08dbc54bca97",
    "storeName": "Nhung Test",
    "latitude": 10.788867,
    "longitude": 106.6963987,
    "distance": 0,
    "isFirstCreatedBranch": false
  },
  {
    "address": "111 Đường Tân Sơn Nhì, Phường Tân Sơn Nhì, Quận Tân Phú, Hồ Chí Minh, Viet Nam",
    "phoneNumber": "357687875",
    "website": "",
    "rate": 0,
    "isMainStore": false,
    "storeId": "67de51aa-fbb9-4df7-9afc-80784cbf2c04",
    "storeBranchId": "8d412ef2-304e-42ce-ff9b-08dbc61fbd8e",
    "storeName": "Hạnhh House",
    "latitude": 10.7952253,
    "longitude": 106.6300899,
    "distance": 0,
    "isFirstCreatedBranch": false
  },
  {
    "address": "62a Trường Sơn, Phường 2, Quận Tân Bình, Hồ Chí Minh, Viet Nam",
    "phoneNumber": "0796134053",
    "email": "nthnhu08+12@gmail.com",
    "website": "",
    "rate": 0,
    "isMainStore": false,
    "storeId": "67de51aa-fbb9-4df7-9afc-80784cbf2c04",
    "storeBranchId": "3dba6c4c-8915-4ba5-a2ff-08dbf34ebff5",
    "storeName": "Data demo",
    "latitude": 10.815175,
    "longitude": 106.665249,
    "distance": 0,
    "isFirstCreatedBranch": false
  },
  {
    "address": "655 Đường Điện Biên Phủ, Phường 25, Quận Bình Thạnh, Hồ Chí Minh, Viet Nam",
    "phoneNumber": "0123456788",
    "website": "",
    "rate": 0,
    "isMainStore": false,
    "storeId": "67de51aa-fbb9-4df7-9afc-80784cbf2c04",
    "storeBranchId": "15b7e687-45a5-40c3-8383-08dbf6faac8f",
    "storeName": "Chi nhánh test report",
    "latitude": 10.7991315,
    "longitude": 106.7213919,
    "distance": 0,
    "isFirstCreatedBranch": false
  },
  {
    "address": "225 Đường Nam Kỳ Khởi Nghĩa, Phường 1,  Quận 3, Hồ Chí Minh, Viet Nam",
    "phoneNumber": "2222222222",
    "website": "",
    "rate": 0,
    "isMainStore": false,
    "storeId": "67de51aa-fbb9-4df7-9afc-80784cbf2c04",
    "storeBranchId": "802b08f5-143f-4392-bf82-08dbf7a16127",
    "storeName": "Chi nhánh này là default",
    "latitude": 10.7838686,
    "longitude": 106.6907903,
    "distance": 0,
    "isFirstCreatedBranch": false
  },
  {
    "address": "56 Đường Nguyễn Tri Phương, Phường 6,  Quận 5, Hồ Chí Minh, Viet Nam",
    "phoneNumber": "123456789",
    "email": "chuvoicon123@gmail.com",
    "website": "",
    "rate": 0,
    "isMainStore": false,
    "storeId": "67de51aa-fbb9-4df7-9afc-80784cbf2c04",
    "storeBranchId": "e921a7a2-fd6e-440f-b409-08dc1660f258",
    "storeName": "Chi nhánh Automation",
    "latitude": 10.7522561,
    "longitude": 106.6695583,
    "distance": 0,
    "isFirstCreatedBranch": false
  },
  {
    "address": "Quán 7 Bún Riêu,  Đường Hậu Giang, Phường 6,  Quận 6, Hồ Chí Minh, Viet Nam",
    "phoneNumber": "0123456788",
    "website": "",
    "rate": 0,
    "isMainStore": false,
    "storeId": "67de51aa-fbb9-4df7-9afc-80784cbf2c04",
    "storeBranchId": "c755f3b6-0807-48bc-bbcd-20eaff469dad",
    "storeName": "Chi nhánh Quận 6 nếu muốn test text dài thì lấy cái này nè mọi người",
    "latitude": 10.7498719,
    "longitude": 106.6453291,
    "distance": 0,
    "isFirstCreatedBranch": false
  },
  {
    "address": "672A Đường Phan Văn Trị, Phường 10, Quận Gò Vấp, Hồ Chí Minh, Viet Nam",
    "phoneNumber": "01234567899",
    "email": "pvtri-gv@gmail.com",
    "website": "",
    "rate": 0,
    "isMainStore": false,
    "storeId": "67de51aa-fbb9-4df7-9afc-80784cbf2c04",
    "storeBranchId": "a57a4404-142e-4d76-b97a-5001b85f2399",
    "storeName": "Phan Van Tri",
    "latitude": 10.8334595,
    "longitude": 106.6707776,
    "distance": 0,
    "isFirstCreatedBranch": false
  },
  {
    "address": "Hẻm 656/88 Quang Trung, Phường 11, Quận Gò Vấp, Hồ Chí Minh, Viet Nam",
    "phoneNumber": "011111112",
    "email": "",
    "website": "",
    "rate": 0,
    "isMainStore": false,
    "storeId": "67de51aa-fbb9-4df7-9afc-80784cbf2c04",
    "storeBranchId": "514bf458-c56d-4e46-b96f-b04b010b66d0",
    "storeName": "Nhà Lin - Lin xài ",
    "latitude": 10.8392416,
    "longitude": 106.6603335,
    "distance": 0,
    "isFirstCreatedBranch": false
  },
  {
    "address": "Gò vấp,  Đường số 21, Phường 8, Quận Gò Vấp, Hồ Chí Minh, Viet Nam",
    "phoneNumber": "123456456",
    "website": "",
    "rate": 0,
    "isMainStore": false,
    "storeId": "67de51aa-fbb9-4df7-9afc-80784cbf2c04",
    "storeBranchId": "bdeb80be-0b16-4a37-ae70-b0530105dc83",
    "storeName": "       Gò Vấp Dat - Opening",
    "latitude": 10.8399939,
    "longitude": 106.6499696,
    "distance": 0,
    "isFirstCreatedBranch": true
  },
  {
    "address": "84a/42 Trần Hữu Trang, Phường 10, Quận Phú Nhuận, Hồ Chí Minh, Viet Nam",
    "phoneNumber": "012222222227",
    "website": "",
    "rate": 0,
    "isMainStore": false,
    "storeId": "67de51aa-fbb9-4df7-9afc-80784cbf2c04",
    "storeBranchId": "3f223f9e-1901-48e4-af31-b663c452f6fd",
    "storeName": "Phú Nhuận - sáng",
    "latitude": 10.7940794,
    "longitude": 106.6742078,
    "distance": 0,
    "isFirstCreatedBranch": false
  },
  {
    "address": "123 Nơ Trang Long, Phường 11, Quận Bình Thạnh, Hồ Chí Minh, Viet Nam",
    "phoneNumber": "02365789410",
    "website": "",
    "rate": 0,
    "isMainStore": false,
    "storeId": "67de51aa-fbb9-4df7-9afc-80784cbf2c04",
    "storeBranchId": "c81896c1-7d8d-414a-b390-be399d3b8ea9",
    "storeName": "Nơ Trang long",
    "latitude": 10.8111423,
    "longitude": 106.6953237,
    "distance": 0,
    "isFirstCreatedBranch": false
  },
  {
    "address": "123 Trường Chinh, Phường 12, Quận Tân Bình, Hồ Chí Minh, Viet Nam",
    "phoneNumber": "0123457777",
    "website": "",
    "rate": 0,
    "isMainStore": false,
    "storeId": "67de51aa-fbb9-4df7-9afc-80784cbf2c04",
    "storeBranchId": "490de194-4eec-4005-84e6-cf5a74ea6cae",
    "storeName": "Tân Bình",
    "latitude": 10.7955127,
    "longitude": 106.6480869,
    "distance": 0,
    "isFirstCreatedBranch": false
  }
]